"全国地方公共団体コード","ID","地方公共団体名","名称","名称_カナ","名称_英語","所在地_全国地方公共団体コード","町字ID","所在地_連結表記","所在地_都道府県","所在地_市区町村","所在地_町字","所在地_番地以下","建物名等(方書)","設置位置","緯度","経度","高度の種別","高度の値","男性トイレ総数","男性トイレ数（小便器）","男性トイレ数（和式）","男性トイレ数（洋式）","女性トイレ総数","女性トイレ数（和式）","女性トイレ数（洋式）","男女共用トイレ総数","男女共用トイレ数（和式）","男女共用トイレ数（洋式）","バリアフリートイレ数","車椅子使用者用トイレ有無","乳幼児用設備設置トイレ有無","オストメイト設置トイレ有無","利用開始時間","利用終了時間","利用可能時間特記事項","画像","画像_ライセンス","備考"
"131083","131083C00001","江東区","江東区立万年橋際公衆便所","コウトウクリツマンエンバシギワコウシュウベンジョ","Public_toilet_at_Mannen-Bridge_KotoCity","131083","","東京都江東区清澄2-14-9","東京都","江東区","清澄2丁目","14-9","","万年橋南東詰め","35.683220","139.794785","","","2","2","0","0","0","0","0","0","0","0","1","有","無","有","00:00:00","23:59:00","","","",""
"131083","131083C00002","江東区","江東区立清澄児童遊園内公衆便所","コウトウクリツキヨスミジドウユウエンナイコウシュウベンジョ","Public_toilet_in_Kiyosumi-ChildPlaySpace_KotoCity","131083","","東京都江東区清澄3-3-16","東京都","江東区","清澄3丁目","3-16","","清澄児童遊園内","35.681236","139.798660","","","2","2","0","0","0","0","0","1","0","1","0","無","無","無","00:00:00","23:59:00","","","",""
"131083","131083C00003","江東区","江東区立高橋際公衆便所","コウトウクリツタカバシギワコウシュウベンジョ","Public_toilet_at_Takabashi-Bridge_KotoCity","131083","","東京都江東区清澄3-11-1","東京都","江東区","清澄3丁目","11-1","","高橋南西詰め","35.683472","139.798477","","","2","2","0","0","0","0","0","1","1","0","1","有","無","無","00:00:00","23:59:00","","","",""
"131083","131083C00004","江東区","江東区立猿子橋際公衆便所","コウトウクリツサルコバシギワコウシュウベンジョ","Public_toilet_at_Saruko-Bridge_KotoCity","131083","","東京都江東区常盤1-11-11","東京都","江東区","常盤1丁目","11-11","","","35.685356","139.796173","","","1","1","0","0","0","0","0","1","0","1","0","無","無","無","00:00:00","23:59:00","","","",""
"131083","131083C00005","江東区","江東区立新大橋際公衆便所","コウトウクリツシンオオハシギワコウシュウベンジョ","Public_toilet_at_Shinohashi-Bridge_KotoCity","131083","","東京都江東区新大橋1-2-1","東京都","江東区","新大橋1丁目","2-1","","新大橋南西詰め","35.687813","139.793106","","","2","2","0","0","0","0","0","0","0","0","0","無","無","無","00:00:00","23:59:00","","","",""
"131083","131083C00006","江東区","江東区立八名川公園内公衆便所","コウトウクリツヤナガワコウエンナイコウシュウベンジョ","Public_toilet_in_Yanagawa-Park_KotoCity","131083","","東京都江東区新大橋3-1-18","東京都","江東区","新大橋3丁目","1-18","","八名川公園内","35.686428","139.796021","","","2","2","0","0","0","0","0","1","1","0","1","有","無","無","00:00:00","23:59:00","","","",""
"131083","131083C00007","江東区","江東区立森下公園内公衆便所","コウトウクリツモリシタコウエンナイコウシュベンジョ","Public_toilet_in_Morishita-Park_KotoCity","131083","","東京都江東区森下2-5-16","東京都","江東区","森下2丁目","5-16","","森下公園内","35.686226","139.799454","","","1","1","0","0","0","0","0","1","0","1","1","有","有","有","00:00:00","23:59:00","","","",""
"131083","131083C00008","江東区","江東区立五間堀公園内公衆便所","コウトウクリツゴケンボリコウエンナイコウシュウベンジョ","Public_toilet_in_Gokenbori-Park_KotoCity","131083","","東京都江東区森下2-30-7","東京都","江東区","森下2丁目","30-7","","五間堀公園内","35.689262","139.798416","","","2","2","0","0","0","0","0","1","0","0","1","有","無","有","00:00:00","23:59:00","","","",""
"131083","131083C00009","江東区","江東区立伊予橋際公衆便所","コウトウクリツイヨバシギワコウシュウベンジョ","Public_toilet_at_Iyo-Bridge_KotoCity","131083","","東京都江東区森下2-31-2","東京都","江東区","森下2丁目","31-2","","新大橋通り沿い","35.688274","139.800369","","","2","2","0","0","0","0","0","1","0","0","1","有","無","有","00:00:00","23:59:00","","","",""
"131083","131083C00010","江東区","江東区立高森公園内公衆便所","コウトウクリツタカモリコウエンナイコウシュベンジョ","Public_toilet_in_Takamori-Park_KotoCity","131083","","東京都江東区森下3-13-9","東京都","江東区","森下3丁目","13-9","","高森公園内","35.685150","139.802989","","","1","1","0","0","0","0","0","1","1","0","1","有","無","有","00:00:00","23:59:00","","","",""
"131083","131083C00011","江東区","江東区立森下四丁目児童遊園内公衆便所","コウトウクリツモリシタヨンチョウメジドウユウエンナイコウシュウベンジョ","Public_toilet_in_Morishita4-ChildPlaySpace_KotoCity","131083","","東京都江東区森下4-16-2","東京都","江東区","森下4丁目","16-2","","森下四丁目児童遊園内","35.686027","139.803661","","","1","1","0","0","0","0","0","0","0","0","1","有","無","有","00:00:00","23:59:00","","","",""
"131083","131083C00012","江東区","江東区立平野二丁目児童遊園内公衆便所","コウトウクリツヒラノニチョウメコウシュウベンジョ","Public_toilet_in_Hirano2-ChildPlaySpace_KotoCity","131083","","東京都江東区平野2-8-2","東京都","江東区","平野2丁目","8-2","","平野二丁目児童遊園内","35.678649","139.802740","","","1","1","0","0","0","0","0","0","0","0","1","有","有","有","00:00:00","23:59:00","","","",""
"131083","131083C00013","江東区","江東区立永本橋際公衆便所","コウトウクリツナガモトバシギワコウシュウベンジョ","Public_toilet_at_Nagamoto-Bridge_KotoCity","131083","","東京都江東区平野2-15-12","東京都","江東区","平野2丁目","15-12","","永本橋際","35.677501","139.804367","","","1","1","0","0","0","0","0","1","0","1","0","無","無","無","00:00:00","23:59:00","","","",""
"131083","131083C00014","江東区","江東区立三好三丁目児童遊園内公衆便所","コウトウクリツミヨシサンチョウメジドウユウエンナイコウシュウベンジョ","Public_toilet_in_Miyoshi3-ChildPlaySpace_KotoCity","131083","","東京都江東区三好3-1-10","東京都","江東区","三好3丁目","1-10","","三好三丁目児童遊園内","35.680079","139.804514","","","1","1","0","0","0","0","0","0","0","0","1","有","無","有","00:00:00","23:59:00","","","",""
"131083","131083C00015","江東区","江東区立正覚院前公衆便所","コウトウクリツショウカクインマエコウシュウベンジョ","Public_toilet_in_front_of_Shogakuin-Temple_KotoCity","131083","","東京都江東区白河1-3-34","東京都","江東区","白河1丁目","3-34","","正覚院前","35.680798","139.799708","","","2","2","0","0","0","0","0","1","0","1","0","無","無","無","00:00:00","23:59:00","","","",""
"131083","131083C00016","江東区","江東区立白河一丁目公園内公衆便所","コウトウクリツシラカワイチチョウメコウエンナイコウシュベンジョ","Public_toilet_in_Shirakawa1-Park_KotoCity","131083","","東京都江東区白河1-5-4","東京都","江東区","白河1丁目","5-4","","白河一丁目公園内","35.683230","139.800755","","","1","1","0","0","0","0","0","0","0","0","1","有","有","有","00:00:00","23:59:00","","","",""
"131083","131083C00017","江東区","江東区立東深川橋際公衆便所","コウトウクリツヒガシフカガワバシギワコウシュウベンジョ","Public_toilet_at_Higashihukagawa-Bridge_KotoCity","131083","","東京都江東区白河3-18-17","東京都","江東区","白河3丁目","18-17","","東深川橋南東詰め","35.683770","139.803759","","","1","1","0","0","1","1","0","0","0","0","1","有","無","無","00:00:00","23:59:00","","","",""
"131083","131083C00018","江東区","江東区立元加賀公園内公衆便所","コウトウクリツモトカガコウエンナイコウシュベンジョ","Public_toilet_in_Motokaga-Park_KotoCity","131083","","東京都江東区白河4-3-27","東京都","江東区","白河4丁目","3-27","","元加賀公園内","35.681761","139.809017","","","2","1","1","0","1","1","0","0","0","0","1","有","有","有","00:00:00","23:59:00","","","",""
"131083","131083C00019","江東区","江東区立佐賀二丁目公衆便所","コウトウクリツサガニチョウメコウエンナイコウシュベンジョ","Public_toilet_Saga2_KotoCity","131083","","東京都江東区佐賀2-1-6","東京都","江東区","佐賀2丁目","1-6","","","35.679932","139.791092","","","3","2","1","0","1","0","1","0","0","0","1","有","無","有","00:00:00","23:59:00","","","",""
"131083","131083C00020","江東区","江東区立永代橋際公衆便所","コウトウクリツエイタイバシギワコウシュウベンジョ","Public_toilet_at_Eitai-Bridge_KotoCity","131083","","東京都江東区永代1-1-4","東京都","江東区","永代1丁目","1-4","","永代橋南東詰め","35.675694","139.788923","","","1","1","0","0","1","1","0","0","0","0","1","有","無","有","00:00:00","23:59:00","","","",""
"131083","131083C00021","江東区","江東区立黒亀橋際公衆便所","コウトウクリツクロキバシギワコウシュウベンジョ","Public_toilet_at_Kuroki-Bridge_KotoCity","131083","","東京都江東区深川1-3-10先","東京都","江東区","深川1丁目","3-10 先","","深川一丁目児童遊園内","35.675453","139.795974","","","1","1","0","0","0","0","0","0","0","0","1","有","無","有","00:00:00","23:59:00","","","",""
"131083","131083C00022","江東区","江東区立亀堀公園内公衆便所","コウトウクリツカメホリコウエンナイコウシュベンジョ","Public_toilet_in_Kamehori-Park_KotoCity","131083","","東京都江東区深川1-6-38","東京都","江東区","深川1丁目","6-38","","亀堀公園内","35.677230","139.794863","","","1","1","0","0","0","0","0","1","0","1","0","無","無","無","00:00:00","23:59:00","","","",""
"131083","131083C00023","江東区","江東区立臨海公園内公衆便所","コウトウクリツリンカイコウエンナイコウシュベンジョ","Public_toilet_in_Rinkai-Park_KotoCity","131083","","東京都江東区門前仲町1-1-1","東京都","江東区","門前仲町1丁目","1-1","","臨海公園内","35.671923","139.792959","","","2","2","0","0","1","0","1","0","0","0","1","有","有","有","00:00:00","23:59:00","","","",""
"131083","131083C00024","江東区","江東区立門前仲町一丁目公衆便所","コウトウクリツモンゼンナカチョウイチチョウメコウシュウベンジョ","Public_toilet_Monzen-nakacho1_KotoCity","131083","","東京都江東区門前仲町1-7-7","東京都","江東区","門前仲町1丁目","7-7","","","35.672844","139.794813","","","3","3","0","0","0","0","0","1","1","0","1","有","無","無","00:00:00","23:59:00","","","",""
"131083","131083C00025","江東区","江東区立油堀川公園内公衆便所","コウトウクリツアブラボリガワコウエンナイコウシュベンジョ","Public_toilet_in_Aburaborigawa-Park_KotoCity","131083","","東京都江東区門前仲町1-20-1先","東京都","江東区","門前仲町1丁目","20-1 先","","油堀川公園内","35.673980","139.795620","","","1","1","0","0","1","0","1","0","0","0","1","有","無","有","00:00:00","23:59:00","","","",""
"131083","131083C00026","江東区","江東区立深川公園内公衆便所","コウトウクリツフカガワコウエンナイコウシュベンジョ","Public_toilet_in_Fukagawa-Park_KotoCity","131083","","東京都江東区富岡1-14-10","東京都","江東区","富岡1丁目","14-10","","深川公園西側広場内","35.672365","139.797476","","","2","2","0","0","2","2","0","0","0","0","1","有","有","有","00:00:00","23:59:00","","","",""
"131083","131083C00027","江東区","江東区立深川公園内第二公衆便所","コウトウクリツフカガワコウエンナイダイニコウシュベンジョ","Public_toilet_in_Fukagawa-Park_KotoCity","131083","","東京都江東区富岡1-16-10","東京都","江東区","富岡1丁目","16-10","","深川公園東側広場内","35.671976","139.798974","","","2","2","0","0","0","0","0","1","0","1","0","無","無","無","00:00:00","23:59:00","","","",""
"131083","131083C00028","江東区","江東区立汐見橋際公衆便所","コウトウクリツシオミバシギワコウシュウベンジョ","Public_toilet_at_Shiomi-Bridge_KotoCity","131083","","東京都江東区富岡2-13-5","東京都","江東区","富岡2丁目","13-5","","汐見橋南西詰め","35.669544","139.801440","","","2","2","1","0","1","1","0","0","0","0","0","有","無","無","00:00:00","23:59:00","","","",""
"131083","131083C00029","江東区","江東区立牡丹町公園内公衆便所","コウトウクリツボタンチョウコウエンナイコウシュウベンジョ","Public_toilet_in_Botancho-Park_KotoCity","131083","","東京都江東区牡丹2-1-2","東京都","江東区","牡丹2丁目","1-2","","牡丹町公園内","35.669898","139.795253","","","2","2","0","0","1","0","1","0","0","0","1","有","有","有","00:00:00","23:59:00","","","",""
"131083","131083C00030","江東区","江東区立古石場川親水公園内公衆便所","コウトウクリツフルイシバガワシンスイコウエンナイコウシュウベンジョ","Public_toilet_in_Furuishibagawashinsui-Park_KotoCity","131083","","東京都江東区古石場2-13ー先","東京都","江東区","古石場2丁目","13 ー先","","古石場川親水公園内","35.667638","139.799246","","","1","1","0","0","0","0","0","1","0","1","0","無","無","無","00:00:00","23:59:00","","","",""
"131083","131083C00031","江東区","江東区立古石場三丁目公園内公衆便所","コウトウクリツフルイシバサンチョウメコウエンナイコウシュウベンジョ","Public_toilet_in_Furuishiba3-Park_KotoCity","131083","","東京都江東区古石場3-1-4","東京都","江東区","古石場3丁目","1-4","","古石場三丁目公園内","35.665059","139.801555","","","1","1","0","0","0","0","0","0","0","0","1","有","有","有","00:00:00","23:59:00","","","",""
"131083","131083C00032","江東区","江東区立越中島公園内公衆便所","コウトウクリツエッチュウジマコウエンナイコウシュウベンジョ","Public_toilet_in_Etchujima-Park_KotoCity","131083","","東京都江東区越中島1-3-23","東京都","江東区","越中島1丁目","3-23","","越中島プール際","35.668658","139.790019","","","3","2","1","0","1","1","0","0","0","0","0","有","無","無","00:00:00","23:59:00","","","",""
"131083","131083C00033","江東区","江東区立越中島公園内第二公衆便所","コウトウクリツエッチュウジマコウエンナイダイニコウシュウベンジョ","Public_toilet_in_Etchujima-Park_KotoCity","131083","","東京都江東区越中島1-3-23","東京都","江東区","越中島1丁目","3-23","","越中島公園内中央部","35.670967","139.788716","","","2","2","0","1","1","0","1","0","0","0","0","無","無","無","00:00:00","23:59:00","","","",""
"131083","131083C00034","江東区","江東区立浜園橋際公衆便所","コウトウクリツハマゾノバシギワコウシュウベンジョ","Public_toilet_at_Hamazono-Bridge_KotoCity","131083","","東京都江東区塩浜1-3-24","東京都","江東区","塩浜1丁目","3-24","","浜園橋南東詰め","35.662402","139.799370","","","1","1","0","0","0","0","0","1","0","1","0","無","無","無","00:00:00","23:59:00","","","",""
"131083","131083C00035","江東区","江東区立浜園公園内公衆便所","コウトウクリツハマゾノコウエンナイコウシュウベンジョ","Public_toilet_in_Hamazono-Park_KotoCity","131083","","東京都江東区塩浜1-4-4","東京都","江東区","塩浜1丁目","4-4","","浜園公園内","35.661871","139.802129","","","1","1","0","0","1","1","0","0","0","0","1","有","有","無","00:00:00","23:59:00","","","",""
"131083","131083C00036","江東区","江東区立塩浜一丁目公園内公衆便所","コウトウクリツシオハマイチチョウメコウエンナイコウシュウベンジョ","Public_toilet_in_Shiohama1-Park_KotoCity","131083","","東京都江東区塩浜1-5-5","東京都","江東区","塩浜1丁目","5-5","","塩浜一丁目公園内","35.659569","139.801381","","","2","2","0","0","0","0","0","2","1","1","0","無","無","無","00:00:00","23:59:00","","","",""
"131083","131083C00037","江東区","江東区立塩浜公園内公衆便所","コウトウクリツシオハマコウエンナイコウシュウベンジョ","Public_toilet_in_Shiohama-Park_KotoCity","131083","","東京都江東区塩浜2-10-14","東京都","江東区","塩浜2丁目","10-14","","塩浜公園内","35.664015","139.808891","","","1","1","0","0","1","1","0","0","0","0","1","有","有","有","00:00:00","23:59:00","","","",""
"131083","131083C00038","江東区","江東区立塩浜二丁目第二公園内公衆便所","コウトウクリツシオハマニチョウメダイニコウエンナイコウシュウベンジョ","Public_toilet_in_Shiohama2-dai2-Park_KotoCity","131083","","東京都江東区塩浜2-17-8","東京都","江東区","塩浜2丁目","17-8","","塩浜二丁目第二公園内","35.662333","139.810215","","","1","1","0","0","0","0","0","0","0","0","1","有","有","有","00:00:00","23:59:00","","","",""
"131083","131083C00039","江東区","江東区立しおかぜ橋塩浜公園内公衆便所","コウトウクリツシオカゼバシシオハマコウエンナイコウシュウベンジョ","Public_toilet_in_Shiokazebashishiohama-Park_KotoCity","131083","","東京都江東区塩浜2-18-4","東京都","江東区","塩浜2丁目","18-4","","しおかぜ橋塩浜公園内","35.662039","139.811030","","","2","2","0","0","0","0","0","1","0","1","0","無","無","無","00:00:00","23:59:00","","","",""
"131083","131083C00040","江東区","江東区立塩浜二丁目公園内公衆便所","コウトウクリツシオハマニチョウメコウエンナイコウシュウベンジョ","Public_toilet_in_Shiohama2-Park_KotoCity","131083","","東京都江東区塩浜2-25-16","東京都","江東区","塩浜2丁目","25-16","","塩浜二丁目公園内","35.664624","139.814968","","","1","1","0","0","0","0","0","0","0","0","1","有","無","有","00:00:00","23:59:00","","","",""
"131083","131083C00041","江東区","江東区立枝川一丁目公園内公衆便所","コウクリツエダガワイチチョウメコウエンナイコウシュウベンジョ","Public_toilet_in_Edagawa1-Park_KotoCity","131083","","東京都江東区枝川1-6-19","東京都","江東区","枝川1丁目","6-19","","枝川一丁目公園内","35.657361","139.803420","","","1","1","0","0","0","0","0","0","0","0","1","有","有","有","00:00:00","23:59:00","","","",""
"131083","131083C00042","江東区","江東区立朝凪公園内公衆便所","コウクリツアサナギコウエンナイコウシュウベンジョ","Public_toilet_in_Asanagi-Park_KotoCity","131083","","東京都江東区枝川1-8-5","東京都","江東区","枝川1丁目","8-5","","朝凪公園内","35.657941","139.801984","","","3","2","1","0","2","1","1","0","0","0","1","有","無","無","00:00:00","23:59:00","","","",""
"131083","131083C00043","江東区","江東区立枝川橋第三児童遊園内公衆便所","コウクリツエダガワバシダイサンジドウユウエンナイコウシュウベンジョ","Public_toilet_in_Edagawabashidai3-ChildPlaySpace_KotoCity","131083","","東京都江東区枝川2-4-17","東京都","江東区","枝川2丁目","4-17","","枝川橋第三児童遊園内","35.657936","139.805571","","","1","1","0","0","0","0","0","1","0","1","0","無","無","無","00:00:00","23:59:00","","","",""
"131083","131083C00044","江東区","江東区立枝川三丁目公園内公衆便所","コウクリツエダガワサンチョウメコウエンナイコウシュウベンジョ","Public_toilet_in_Edagawa3-Park_KotoCity","131083","","東京都江東区枝川3-3-5","東京都","江東区","枝川3丁目","3-5","","枝川三丁目公園内","35.658924","139.808339","","","1","1","0","0","1","1","0","0","0","0","1","有","無","有","00:00:00","23:59:00","","","",""
"131083","131083C00045","江東区","江東区立豊洲一丁目第二公園内公衆便所","コウトウクリツトヨスイチチョウメダイニコウエンナイコウシュウベンジョ","Public_toilet_in_Toyosu1dai2-Park_KotoCity","131083","","東京都江東区豊洲1-2-1","東京都","江東区","豊洲1丁目","2-1","","豊洲一丁目第二公園内","35.659800","139.792163","","","1","1","0","0","1","1","0","0","0","0","1","有","無","有","00:00:00","23:59:00","","","",""
"131083","131083C00046","江東区","江東区立豊洲駅前公衆便所","コウトウクリツトヨスエキマエコウシュウベンジョ","Public_toilet_in_front_of_Toyosu.Sta._KotoCity","131083","","東京都江東区豊洲2-2-4","東京都","江東区","豊洲2丁目","2-4","","豊洲駅前広場","35.655243","139.795452","","","3","2","0","1","2","0","2","0","0","0","1","有","有","有","00:00:00","23:59:00","","","",""
"131083","131083C00047","江東区","江東区立豊洲公園内公衆便所","コウトウクリツトヨスコウエンナイコウシュウベンジョ","Public_toilet_in_Toyosu-Park_KotoCity","131083","","東京都江東区豊洲2-3-6","東京都","江東区","豊洲2丁目","3-6","","豊洲公園内","35.653499","139.793515","","","5","3","1","1","4","2","2","0","0","0","1","有","有","有","00:00:00","23:59:00","","","",""
"131083","131083C00048","江東区","江東区立豊洲三丁目公園内公衆便所","コウトウクリツトヨスサンチョウメコウエンナイコウシュウベンジョ","Public_toilet_in_Toyosu3-Park_KotoCity","131083","","東京都江東区豊洲3-5-11","東京都","江東区","豊洲3丁目","5-11","","豊洲三丁目公園内","35.658055","139.797034","","","2","1","1","0","1","1","0","0","0","0","0","無","無","無","00:00:00","23:59:00","","","",""
"131083","131083C00049","江東区","江東区立豊洲四丁目公園内公衆便所","コウトウクリツトヨスヨンチョウメコウエンナイコウシュウベンジョ","Public_toilet_in_Toyosu4-Park_KotoCity","131083","","東京都江東区豊洲4-5-30先","東京都","江東区","豊洲4丁目","5-30 先","","豊洲四丁目公園内","35.654929","139.798397","","","1","1","0","0","0","0","0","0","0","0","1","有","有","有","00:00:00","23:59:00","","","",""
"131083","131083C00050","江東区","江東区立豊洲五丁目公園内公衆便所","コウトウクリツトヨスゴチョウメコウエンナイコウシュウベンジョ","Public_toilet_in_Toyosu5-Park_KotoCity","131083","","東京都江東区豊洲5-3-1","東京都","江東区","豊洲5丁目","3-1","","豊洲五丁目公園内","35.653152","139.795867","","","2","2","0","0","0","0","0","0","0","0","1","有","有","有","00:00:00","23:59:00","","","",""
"131083","131083C00051","江東区","江東区立豊洲六丁目第二公園内公衆便所","コウトウクリツトヨスロクチョウメダイニコウエンナイコウシュウベンジョ","Public_toilet_in_Toyosu6dai2-Park_KotoCity","131083","","東京都江東区豊洲6-2-1","東京都","江東区","豊洲6丁目","2-1","","豊洲六丁目第二公園内","35.650692","139.792814","","","1","1","0","0","1","1","0","0","0","0","1","有","有","有","00:00:00","23:59:00","","","",""
"131083","131083C00052","江東区","江東区立豊洲六丁目公園内公衆便所","コウトウクリツトヨスロクチョウメコウエンナイコウシュウベンジョ","Public_toilet_in_Toyosu6-Park_KotoCity","131083","","東京都江東区豊洲6-2-35","東京都","江東区","豊洲6丁目","2-35","","豊洲六丁目公園内","35.645875","139.791309","","","2","1","0","1","2","1","1","0","0","0","0","有","有","有","00:00:00","23:59:00","","","",""
"131083","131083C00053","江東区","江東区立豊洲ぐるり公園内公衆便所","コウトウクリツトヨスグルリコウエンナイコウシュウベンジョ","Public_toilet_in_Toyosu-Gururi-Park_KotoCity","131083","","東京都江東区豊洲6-5-33","東京都","江東区","豊洲6丁目","5-33","","豊洲ぐるり公園内","35.640378","139.779113","","","4","3","0","1","2","0","2","0","0","0","1","有","有","有","00:00:00","23:59:00","","","",""
"131083","131083C00054","江東区","江東区立東雲緑道公園内公衆便所","コウトウクリツシノノメリョクドウコウエンナイコウシュウベンジョ","Public_toilet_in_Shinonomeryokudou-Park_KotoCity","131083","","東京都江東区東雲1-7-4","東京都","江東区","東雲1丁目","7-4","","東雲緑道公園内","35.645792","139.800728","","","1","1","0","0","0","0","0","1","0","1","0","無","無","無","00:00:00","23:59:00","","","",""
"131083","131083C00055","江東区","江東区立東雲水辺公園内第一公衆便所","コウトウクリツシノノメミズベコウエンナイダイイチコウシュウベンジョ","Public_toilet_in_Shinonomemizube-Park_KotoCity","131083","","東京都江東区東雲1-9-58","東京都","江東区","東雲1丁目","9-58","","東雲水辺公園内","35.645792","139.800728","","","3","2","1","0","2","1","1","0","0","0","0","有","無","無","00:00:00","23:59:00","","","",""
"131083","131083C00056","江東区","江東区立東雲水辺公園内第二公衆便所","コウトウクリツシノノメミズベコウエンナイダイニコウシュウベンジョ","Public_toilet_in_Shinonomemizube-Park_KotoCity","131083","","東京都江東区東雲1-9-58","東京都","江東区","東雲1丁目","9-58","","辰巳さくら橋近く","35.648752","139.805219","","","1","1","0","0","1","1","0","0","0","0","0","有","無","無","00:00:00","23:59:00","","","",""
"131083","131083C00057","江東区","江東区立東雲公園内公衆便所","コウトウクリツシノノメコウエンナイコウシュウベンジョ","Public_toilet_in_Shinonome-Park_KotoCity","131083","","東京都江東区東雲2-4-17","東京都","江東区","東雲2丁目","4-17","","江東区立東雲公園内公衆便所","35.645532","139.805685","","","1","1","0","0","1","1","0","0","0","0","0","有","無","無","00:00:00","23:59:00","","","",""
"131083","131083C00058","江東区","江東区立東雲二丁目公園内公衆便所","コウトウクリツシノノメニチョウメコウエンナイコウシュウベンジョ","Public_toilet_in_Shinonome2-Park_KotoCity","131083","","東京都江東区東雲2-7-6","東京都","江東区","東雲2丁目","7-6","","江東区立東雲二丁目公園内公衆便所","35.642874","139.803949","","","2","1","1","0","1","1","0","0","0","0","0","有","無","無","00:00:00","23:59:00","","","",""
"131083","131083C00059","江東区","江東区立東雲駅前公衆便所","コウトウクリツシノノメエキマエコウシュウベンジョ","Public_toilet_in_front_of_Shinonome.Sta._KotoCity","131083","","東京都江東区東雲2-8-6","東京都","江東区","東雲2丁目","8-6","","東雲駅前広場","35.640795","139.804662","","","2","2","0","0","0","0","0","0","0","0","1","有","有","有","00:00:00","23:59:00","","","",""
"131083","131083C00060","江東区","江東区立辰巳駅前公衆便所","コウトウクリツタツミエキマエコウシュウベンジョ","Public_toilet_in_front_of_Tatsumi.Sta._KotoCity","131083","","東京都江東区辰巳1-1-40","東京都","江東区","辰巳1丁目","1-40","","辰巳駅前広場","35.646838","139.808929","","","3","2","1","0","2","1","1","0","0","0","1","有","無","有","00:00:00","23:59:00","","","",""
"131083","131083C00061","江東区","江東区立潮見さざなみ公園内公衆便所","コウトウクリツシオミサザナミコウエンナイコウシュウベンジョ","Public_toilet_in_Shiomisazanamii-Park_KotoCity","131083","","東京都江東区潮見1-29-24","東京都","江東区","潮見1丁目","29-24","","潮見さざなみ公園内","35.655190","139.816055","","","3","2","1","0","2","1","1","0","0","0","0","有","無","無","00:00:00","23:59:00","","","",""
"131083","131083C00062","江東区","江東区立潮見駅前公衆便所","コウトウクリツシオミエキマエコウシュウベンジョ","Public_toilet_in_front_of_Toyosu.Sta._KotoCity","131083","","東京都江東区潮見2-7-15","東京都","江東区","潮見2丁目","7-15","","潮見駅前広場","35.658886","139.816759","","","4","3","0","1","1","0","1","0","0","0","1","有","有","有","00:00:00","23:59:00","","","",""
"131083","131083C00063","江東区","江東区立豊住橋際公衆便所","コウトウクリツトヨズミバシギワコウシュウベンジョ","Public_toilet_at_Toyozumi-Bridge_KotoCity","131083","","東京都江東区千石2-1-6","東京都","江東区","千石2丁目","1-6","","豊住橋北西詰め","35.676485","139.815617","","","3","2","1","0","2","1","1","0","0","0","1","有","無","無","00:00:00","23:59:00","","","",""
"131083","131083C00064","江東区","江東区立千石公園内公衆便所","コウトウクリツセンゴクコウエンナイコウシュウベンジョ","Public_toilet_in_Sengoku-Park_KotoCity","131083","","東京都江東区千石2-7-4","東京都","江東区","千石2丁目","7-4","","千石公園内","35.679379","139.815534","","","1","1","0","0","0","0","0","1","0","0","1","有","無","有","00:00:00","23:59:00","","","",""
"131083","131083C00065","江東区","江東区立川南公園内公衆便所","コウトウクリツセンナンコウエンナイコウシュウベンジョ","Public_toilet_in_Sennan-Park_KotoCity","131083","","東京都江東区千石2-9-22","東京都","江東区","千石2丁目","9-22","","川南公園内","35.679028","139.817206","","","2","2","0","0","0","0","0","1","0","1","0","無","無","無","00:00:00","23:59:00","","","",""
"131083","131083C00066","江東区","江東区立仙台堀川親水公園内第二公衆便所","コウトウクリツセンダイボリガワシンスイコウエンナイダイニコウシュウベンジョ","Public_toilet_in_Sendaiborigawa-Park_KotoCity","131083","","東京都江東区千石3-1-12先","東京都","江東区","千石3丁目","1-12 先","","すっきり館","35.676538","139.818079","","","3","2","1","0","2","2","0","0","0","0","0","有","無","無","00:00:00","23:59:00","","","",""
"131083","131083C00067","江東区","江東区立千砂橋際公衆便所","コウトウクリツセンスナバシギワコウシュウベンジョ","Public_toilet_at_Sensuna-Bridge_KotoCity","131083","","東京都江東区千石3-1-46","東京都","江東区","千石3丁目","1-46","","千砂橋南西詰め","35.678399","139.820001","","","2","2","0","0","0","0","0","1","0","1","0","無","無","無","00:00:00","23:59:00","","","",""
"131083","131083C00068","江東区","江東区立扇橋公園内公衆便所","コウトウクリツオウギバシコウエンナイコウシュウベンジョ","Public_toilet_in_Ougibashi-Park_KotoCity","131083","","東京都江東区石島18-23","東京都","江東区","石島","18-23","","扇橋公園内","35.680601","139.811842","","","1","1","0","0","1","0","1","0","0","0","1","有","無","有","00:00:00","23:59:00","","","",""
"131083","131083C00069","江東区","江東区立江東公園内公衆便所","コウトウクリツコウトウコウエンナイコウシュウベンジョ","Public_toilet_in_Koto-Park_KotoCity","131083","","東京都江東区千田17-5","東京都","江東区","千田","17-5","","江東公園内","35.682428","139.816412","","","2","2","0","0","0","0","0","2","1","1","0","無","無","無","00:00:00","23:59:00","","","",""
"131083","131083C00070","江東区","江東区立川南海辺公園内公衆便所","コウトウクリツセンナンウミベコウエンナイコウシュウベンジョ","Public_toilet_in_Sennanumibe-Park_KotoCity","131083","","東京都江東区海辺1-3","東京都","江東区","海辺","1-3","","川南海辺公園内","35.680101","139.817360","","","1","1","0","0","0","0","0","1","0","1","0","無","無","無","00:00:00","23:59:00","","","",""
"131083","131083C00071","江東区","江東区立ボート場内第二公衆便所","コウトウクリツボートジョウナイダイニコウシュウベンジョ","Public_toilet_in_Odaka-BoatYard_KotoCity","131083","","東京都江東区海辺8-16先","東京都","江東区","海辺","8-16 先","","尾高ボート場","35.681260","139.820414","","","1","1","0","0","1","0","0","0","0","0","0","有","無","無","00:00:00","23:59:00","","","",""
"131083","131083C00072","江東区","江東区立扇橋際公衆便所","コウトウクリツオウギバシギワコウシュウベンジョ","Public_toilet_at_Ougibashi-Bridge_KotoCity","131083","","東京都江東区扇橋1-17-9","東京都","江東区","扇橋1丁目","17-9","","扇橋北東詰め","35.682845","139.810292","","","1","1","0","0","0","0","0","1","0","1","0","無","無","無","00:00:00","23:59:00","","","",""
"131083","131083C00073","江東区","江東区立扇橋一丁目児童遊園内公衆便所","コウトウクリツオウギバシイチチョウメジドウユウエンナイコウシュウベンジョ","Public_toilet_in_Ougibashi1-ChildPlaySpace_KotoCity","131083","","東京都江東区扇橋1-20ー先","東京都","江東区","扇橋1丁目","20 ー先","","扇橋一丁目児童遊園内","35.683260","139.810801","","","1","1","0","0","0","0","0","0","0","0","1","有","有","有","00:00:00","23:59:00","","","",""
"131083","131083C00074","江東区","江東区立扇橋一丁目公園内公衆便所","コウトウクリツオウギバシイチチョウメコウエンナイコウシュウベンジョ","Public_toilet_in_Ougibashi1-Park_KotoCity","131083","","東京都江東区扇橋1-21-28","東京都","江東区","扇橋1丁目","21-28","","扇橋一丁目公園内","35.683998","139.811348","","","1","1","0","0","0","0","0","1","0","0","1","有","無","有","00:00:00","23:59:00","","","",""
"131083","131083C00075","江東区","江東区立岩井橋際公衆便所","コウトウクリツイワイバシギワコウシュウベンジョ","Public_toilet_at_Iwai-Bridge_KotoCity","131083","","東京都江東区扇橋3-7-1","東京都","江東区","扇橋3丁目","7-1","","岩井橋北西詰め","35.682367","139.820547","","","2","2","0","0","0","0","0","1","0","1","0","無","無","無","00:00:00","23:59:00","","","",""
"131083","131083C00076","江東区","江東区立三島橋公園内公衆便所","コウトウクリツミシマバシコウエンナイコウシュウベンジョ","Public_toilet_in_Mishima-Bridge-Park_KotoCity","131083","","東京都江東区扇橋3-7-16","東京都","江東区","扇橋3丁目","7-16","","三島橋公園内","35.683172","139.820530","","","3","2","1","0","1","1","0","0","0","0","0","有","無","無","00:00:00","23:59:00","","","",""
"131083","131083C00077","江東区","江東区立扇橋三丁目公園内公衆便所","コウトウクリツオウギバシサンチョウメコウエンナイコウシュウベンジョ","Public_toilet_in_Ougibashi3-Park_KotoCity","131083","","東京都江東区扇橋3-20-11","東京都","江東区","扇橋3丁目","20-11","","扇橋三丁目公園内","35.684014","139.818680","","","1","1","0","0","0","0","0","0","0","0","1","有","有","有","00:00:00","23:59:00","","","",""
"131083","131083C00078","江東区","江東区立小松橋際児童遊園内公衆便所","コウトウクリツコマツバシギワジドウユウエンナイコウシュウベンジョ","Public_toilet_in_Komatsubashigiwa-ChildPlaySpace_KotoCity","131083","","東京都江東区猿江1-5-18","東京都","江東区","猿江1丁目","5-18","","小松橋際児童遊園内","35.684880","139.812419","","","1","1","0","0","0","0","0","0","0","0","1","有","有","有","00:00:00","23:59:00","","","",""
"131083","131083C00079","江東区","江東区立猿江一丁目公園内公衆便所","コウトウクリツサルエイチチョウメコウエンナイコウシュウベンジョ","Public_toilet_in_Sarue1-Park_KotoCity","131083","","東京都江東区猿江1-11-5","東京都","江東区","猿江1丁目","11-5","","猿江一丁目公園内","35.686457","139.812781","","","1","1","0","0","0","0","0","0","0","0","1","有","有","有","00:00:00","23:59:00","","","",""
"131083","131083C00080","江東区","江東区立猿江二丁目公園内公衆便所","コウトウクリツサルエニチョウメコウエンナイコウシュウベンジョ","Public_toilet_in_Sarue2-Park_KotoCity","131083","","東京都江東区猿江2-3-10","東京都","江東区","猿江2丁目","3-10","","猿江二丁目公園内","35.686046","139.815286","","","2","2","0","0","0","0","0","1","0","1","0","無","無","無","00:00:00","23:59:00","","","",""
"131083","131083C00081","江東区","江東区立住吉一丁目公園内公衆便所","コウトウクリツスミヨシイチチョウメコウエンナイコウシュウベンジョ","Public_toilet_in_Sumiyoshi1-Park_KotoCity","131083","","東京都江東区住吉1-8-13","東京都","江東区","住吉1丁目","8-13","","住吉一丁目公園内","35.687419","139.811797","","","1","1","0","0","0","0","0","1","0","1","0","無","無","無","00:00:00","23:59:00","","","",""
"131083","131083C00082","江東区","江東区立住利公園内公衆便所","コウトウクリツスミトシコウエンナイコウシュウベンジョ","Public_toilet_in_Sumitoshi-Park_KotoCity","131083","","東京都江東区住吉1-19-20","東京都","江東区","住吉1丁目","19-20","","住利公園内","35.690044","139.812689","","","1","1","0","0","0","0","0","1","0","1","0","無","無","無","00:00:00","23:59:00","","","",""
"131083","131083C00083","江東区","江東区立猿江公園内公衆便所","コウトウクリツサルエコウエンナイコウシュウベンジョ","Public_toilet_in_Sarue-Park_KotoCity","131083","","東京都江東区住吉2-28-26","東京都","江東区","住吉2丁目","28-26","","野球場近く","35.688923","139.817355","","","2","2","0","0","0","0","0","1","0","1","0","無","無","無","00:00:00","23:59:00","","","",""
"131083","131083C00084","江東区","江東区立木場二丁目公園内公衆便所","コウトウクリツキバニチョウメコウエンナイコウシュウベンジョ","Public_toilet_in_Kiba2-Park_KotoCity","131083","","東京都江東区木場2-11-9先","東京都","江東区","木場2丁目","11-9 先","","木場二丁目公園内","35.670323","139.804398","","","1","1","0","0","0","0","0","0","0","0","0","有","無","有","00:00:00","23:59:00","","","",""
"131083","131083C00085","江東区","江東区立舟木橋公衆便所","コウトウクリツフナキバシコウシュウベンジョ","Public_toilet_Funaki-Bridge_KotoCity","131083","","東京都江東区木場2-18-14","東京都","江東区","木場2丁目","18-14","","舟木橋北東詰め","35.669672","139.804800","","","2","2","0","0","0","0","0","1","1","0","1","有","無","無","00:00:00","23:59:00","","","",""
"131083","131083C00086","江東区","江東区立木場橋公衆便所","コウトウクリツキババシコウシュウベンジョ","Public_toilet_Kiba-Bridge_KotoCity","131083","","東京都江東区木場3-2-9","東京都","江東区","木場3丁目","2-9","","木場橋南西詰め","35.672356","139.805020","","","2","2","0","0","0","0","0","2","1","1","0","無","無","無","00:00:00","23:59:00","","","",""
"131083","131083C00087","江東区","江東区立亀居橋公衆便所","コウトウクリツカメイバシコウシュウベンジョ","Public_toilet_Kamei-Bridge_KotoCity","131083","","東京都江東区木場3-17-6","東京都","江東区","木場3丁目","17-6","","三ツ目通り沿い","35.674544","139.806592","","","3","2","1","0","2","1","1","0","0","0","1","有","有","有","00:00:00","23:59:00","","","",""
"131083","131083C00088","江東区","江東区立平久公園内公衆便所","コウトウクリツヘイキュウコウエンナイコウシュウベンジョ","Public_toilet_in_Heikyu-Park_KotoCity","131083","","東京都江東区木場6-4-18","東京都","江東区","木場6丁目","4-18","","平久公園内","35.666891","139.807599","","","1","1","0","0","0","0","0","0","0","0","1","有","有","有","00:00:00","23:59:00","","","",""
"131083","131083C00089","江東区","江東区立木場六丁目児童遊園内公衆便所","コウトウクリツキバロクチョウメジドウユウエンナイコウシュウベンジョ","Public_toilet_in_Kiba6-ChildPlaySpace_KotoCity","131083","","東京都江東区木場6-13-7","東京都","江東区","木場6丁目","13-7","","木場六丁目児童遊園内","35.668219","139.807810","","","1","1","0","0","0","0","0","0","0","0","1","有","有","有","00:00:00","23:59:00","","","",""
"131083","131083C00090","江東区","江東区立南開橋第二児童遊園内公衆便所","コウトウクリツナンカイバシダイニジドウユウエンナイコウシュウベンジョ","Public_toilet_in_Nankai-Bridge-ChildPlaySpace_KotoCity","131083","","東京都江東区東陽1-21-6","東京都","江東区","東陽1丁目","21-6","","南開橋第二児童遊園内","35.666082","139.811225","","","2","2","0","0","0","0","0","1","0","1","0","無","無","無","00:00:00","23:59:00","","","",""
"131083","131083C00091","江東区","江東区立東陽一丁目第二公園内公衆便所","コウトウクリツトウヨウイチチョウメダイニコウエンナイコウシュウベンジョ","Public_toilet_in_Toyo1dai2-Park_KotoCity","131083","","東京都江東区東陽1-39-8","東京都","江東区","東陽1丁目","39-8","","東陽一丁目第二公園内","35.665908","139.812546","","","1","1","0","0","0","0","0","0","0","0","1","有","有","有","00:00:00","23:59:00","","","",""
"131083","131083C00092","江東区","江東区立東陽三丁目公衆便所","コウトウクリツトウヨウサンチョウメコウシュウベンジョ","Public_toilet_Toyo3_KotoCity","131083","","東京都江東区東陽3-20-1先","東京都","江東区","東陽3丁目","20-1 先","","洲崎川緑道公園内","35.668745","139.810921","","","1","1","0","0","0","0","0","1","1","0","0","有","無","無","00:00:00","23:59:00","","","",""
"131083","131083C00093","江東区","江東区立東陽公園内公衆便所","コウトウクリツトウヨウコウエンナイコウシュウベンジョ","Public_toilet_in_Toyo-Park_KotoCity","131083","","東京都江東区東陽3-27-27","東京都","江東区","東陽3丁目","27-27","","東陽公園内","35.669781","139.815615","","","3","2","1","0","1","1","0","0","0","0","0","有","無","無","00:00:00","23:59:00","","","",""
"131083","131083C00094","江東区","江東区立横十間川親水公園内生物の楽園際公衆便所","コウトウクリツヨコジュッケンガワシンスイコウエンナイセイブツノラクエンナイコウシュウベンジョ","Public_toilet_in_Yokojyukkengawashinsui-Park_KotoCity","131083","","東京都江東区東陽4-12-16先","東京都","江東区","東陽4丁目","12-16 先","","横十間川親水公園内田んぼ脇","35.674400","139.819411","","","1","1","0","0","0","0","0","1","1","0","0","有","無","無","00:00:00","23:59:00","","","",""
"131083","131083C00095","江東区","江東区立東陽五丁目公園内公衆便所","コウトウクリツトウヨウゴチョウメコウエンナイコウシュウベンジョ","Public_toilet_in_Toyo5-Park_KotoCity","131083","","東京都江東区東陽5-29-39","東京都","江東区","東陽5丁目","29-39","","東陽五丁目公園内","35.672688","139.813601","","","1","1","0","0","0","0","0","0","0","0","1","有","有","有","00:00:00","23:59:00","","","",""
"131083","131083C00096","江東区","江東区立豊住公園内公衆便所","コウトウクリツトヨズミコウエンナイコウシュウベンジョ","Public_toilet_in_Toyozumi-Park_KotoCity","131083","","東京都江東区東陽6-1-13","東京都","江東区","東陽6丁目","1-13","","豊住公園内","35.673684","139.811241","","","1","1","0","0","0","0","0","0","0","0","1","有","有","有","00:00:00","23:59:00","","","",""
"131083","131083C00097","江東区","江東区立東陽六丁目公衆便所","コウトウクリツトウヨウロクチョウメコウシュウベンジョ","Public_toilet_Kiba6_KotoCity","131083","","東京都江東区東陽6-5-18","東京都","江東区","東陽6丁目","5-18","","大門通り沿い","35.675903","139.812343","","","1","1","0","0","0","0","0","0","0","0","1","有","無","有","00:00:00","23:59:00","","","",""
"131083","131083C00098","江東区","江東区立亀島橋際公衆便所","コウトウクリツカメジマバシギワコウシュウベンジョ","Public_toilet_at_Kamejima-Bridge_KotoCity","131083","","東京都江東区亀戸1-1-1","東京都","江東区","亀戸1丁目","1-1","","亀島橋北東詰め","35.693537","139.820087","","","1","1","0","0","0","0","0","0","0","0","1","有","無","有","00:00:00","23:59:00","","","",""
"131083","131083C00099","江東区","江東区立亀戸西公園内公衆便所","コウトウクリツカメイドニシコウエンナイコウシュウベンジョ","Public_toilet_in_Kameidonishi-Park_KotoCity","131083","","東京都江東区亀戸1-9-5","東京都","江東区","亀戸1丁目","9-5","","亀戸西公園内","35.695662","139.822687","","","2","2","0","0","0","0","0","0","0","0","1","有","有","有","00:00:00","23:59:00","","","",""
"131083","131083C00100","江東区","江東区立亀戸公園内公衆便所","コウトウクリツカメイドコウエンナイコウシュウベンジョ","Public_toilet_in_Kameido-Park_KotoCity","131083","","東京都江東区亀戸1-22-11","東京都","江東区","亀戸1丁目","22-11","","亀戸公園内","35.695483","139.823835","","","2","2","0","0","0","0","0","0","0","0","1","有","有","有","00:00:00","23:59:00","","","",""
"131083","131083C00101","江東区","江東区立松代橋際公衆便所","コウトウクリツマツシロバシギワコウシュウベンジョ","Public_toilet_at_Matsushiro-Bridge_KotoCity","131083","","東京都江東区亀戸2-1-1先","東京都","江東区","亀戸2丁目","1-1 先","","亀戸水上公園近く","35.697062","139.819670","","","1","1","0","0","0","0","0","1","0","1","0","無","無","無","00:00:00","23:59:00","","","",""
"131083","131083C00102","江東区","江東区立文泉公園内公衆便所","コウトウクリツブンセンコウエンナイコウシュウベンジョ","Public_toilet_in_Bunsen-Park_KotoCity","131083","","東京都江東区亀戸2-4-13","東京都","江東区","亀戸2丁目","4-13","","文泉公園内","35.698120","139.821991","","","2","2","0","0","0","0","0","0","1","0","0","有","無","無","00:00:00","23:59:00","","","",""
"131083","131083C00103","江東区","江東区立亀戸駅前公園内公衆便所","コウトウクリツカメイドエキマエコウエンナイコウシュウベンジョ","Public_toilet_in_Kameidoekimae-Park_KotoCity","131083","","東京都江東区亀戸2-21-9","東京都","江東区","亀戸2丁目","21-9","","亀戸駅前公園内","35.698046","139.824978","","","5","3","1","1","2","1","1","0","0","0","1","有","有","有","00:00:00","23:59:00","","","",""
"131083","131083C00104","江東区","江東区立亀戸二丁目公園内公衆便所","コウトウクリツカメイドニチョウメコウエンナイコウシュウベンジョ","Public_toilet_in_Kameido2-Park_KotoCity","131083","","東京都江東区亀戸2-33-2","東京都","江東区","亀戸2丁目","33-2","","亀戸二丁目公園内","35.700009","139.823481","","","1","1","0","0","0","0","0","1","0","1","0","無","無","無","00:00:00","23:59:00","","","",""
"131083","131083C00105","江東区","江東区立亀戸天神際公衆便所","コウトウクリツカメイドテンジンギワコウシュウベンジョ","Public_toilet_Kameido-Tenjin-Shrine_KotoCity","131083","","東京都江東区亀戸3-6-39","東京都","江東区","亀戸3丁目","6-39","","亀戸天神内","35.702109","139.821153","","","2","2","0","0","0","0","0","3","2","1","0","無","無","無","00:00:00","23:59:00","","","",""
"131083","131083C00106","江東区","江東区立亀戸三丁目児童遊園内公衆便所","コウトウクリツカメイドサンチョウメジドウユウエンナイコウシュウベンジョ","Public_toilet_in_Kameido3-ChildPlaySpace_KotoCity","131083","","東京都江東区亀戸3-12-10","東京都","江東区","亀戸3丁目","12-10","","亀戸三丁目児童遊園内","35.704212","139.819434","","","1","1","0","0","0","0","0","1","0","1","0","無","無","無","00:00:00","23:59:00","","","",""
"131083","131083C00107","江東区","江東区立亀戸三丁目第二公衆便所","コウトウクリツカメイドサンチョウメダイニコウシュウベンジョ","Public_toilet_Kameido3-dai2_KotoCity","131083","","東京都江東区亀戸3-36-20","東京都","江東区","亀戸3丁目","36-20","","亀島小記念公園内","35.706783","139.819352","","","2","2","0","0","1","0","1","0","0","0","0","有","無","有","00:00:00","23:59:00","","","",""
"131083","131083C00108","江東区","江東区立亀島公園内公衆便所","コウトウクリツカメジマコウエンナイコウシュウベンジョ","Public_toilet_in_Kamejima-Park_KotoCity","131083","","東京都江東区亀戸3-39-16","東京都","江東区","亀戸3丁目","39-16","","亀島公園内","35.705552","139.822649","","","1","1","0","0","0","0","0","0","0","0","1","有","有","有","00:00:00","23:59:00","","","",""
"131083","131083C00109","江東区","江東区立亀戸三丁目公衆便所","コウトウクリツカメイドサンチョウメコウシュウベンジョ","Public_toilet_Kameido3_KotoCity","131083","","東京都江東区亀戸3-57-22","東京都","江東区","亀戸3丁目","57-22","","香取神社前","35.703454","139.825046","","","2","2","0","0","0","0","1","0","0","0","1","有","無","無","00:00:00","23:59:00","","","",""
"131083","131083C00110","江東区","江東区立亀戸三丁目公園内公衆便所","コウトウクリツカメイドサンチョウメコウエンナイコウシュウベンジョ","Public_toilet_in_Kameido3-Park_KotoCity","131083","","東京都江東区亀戸3-59-8","東京都","江東区","亀戸3丁目","59-8","","亀戸三丁目公園内","35.703153","139.823967","","","1","1","0","0","0","0","0","1","1","0","0","有","無","無","00:00:00","23:59:00","","","",""
"131083","131083C00111","江東区","江東区立香取公園内公衆便所","コウトウクリツカトリコウエンナイコウシュウベンジョ","Public_toilet_in_Katori-Park_KotoCity","131083","","東京都江東区亀戸4-27-6","東京都","江東区","亀戸4丁目","27-6","","香取公園内","35.703529","139.827191","","","2","2","0","0","0","0","0","1","0","1","0","無","無","無","00:00:00","23:59:00","","","",""
"131083","131083C00112","江東区","江東区立水神公園内公衆便所","コウトウクリツスイジンコウエンナイコウシュウベンジョ","Public_toilet_in_Suijin-Park_KotoCity","131083","","東京都江東区亀戸4-45-6","東京都","江東区","亀戸4丁目","45-6","","水神公園内","35.702121","139.829417","","","1","1","0","0","0","0","0","1","0","1","0","無","無","無","00:00:00","23:59:00","","","",""
"131083","131083C00113","江東区","江東区立亀戸五丁目公園内公衆便所","コウトウクリツカメイドゴチョウメコウエンナイコウシュウベンジョ","Public_toilet_in_Kameido5-Park_KotoCity","131083","","東京都江東区亀戸5-24-4","東京都","江東区","亀戸5丁目","24-4","","亀戸五丁目公園内","35.700155","139.828820","","","1","1","0","0","0","1","0","0","0","0","1","有","無","有","00:00:00","23:59:00","","","",""
"131083","131083C00114","江東区","江東区立亀戸五丁目第二公園内公衆便所","コウトウクリツカメイドゴチョウメダイニコウエンナイコウシュウベンジョ","Public_toilet_in_Kameido5dai2-Park_KotoCity","131083","","東京都江東区亀戸5-33-4","東京都","江東区","亀戸5丁目","33-4","","亀戸五丁目第二公園内","35.698368","139.830160","","","1","1","0","0","0","0","0","0","0","0","1","有","有","有","00:00:00","23:59:00","","","",""
"131083","131083C00115","江東区","江東区立亀戸南公園内公衆便所","コウトウクリツカメイドミナミコウエンナイコウシュウベンジョ","Public_toilet_in_Kameidominami-Park_KotoCity","131083","","東京都江東区亀戸6-18-1","東京都","江東区","亀戸6丁目","18-1","","亀戸南公園内","35.695171","139.827851","","","1","1","0","0","0","0","0","0","0","0","1","有","有","有","00:00:00","23:59:00","","","",""
"131083","131083C00116","江東区","江東区立竪川第二公園内公衆便所","コウトウクリツタテカワダイニコウエンナイコウシュウベンジョ","Public_toilet_in_Tatekawadai2-Park_KotoCity","131083","","東京都江東区亀戸6-35-3","東京都","江東区","亀戸6丁目","35-3","","竪川第二公園内","35.694587","139.829870","","","2","2","0","0","0","0","0","1","0","1","0","無","無","無","00:00:00","23:59:00","","","",""
"131083","131083C00117","江東区","江東区立亀戸平岩公園内公衆便所","コウトウクリツタテカワヒライワコウエンナイコウシュウベンジョ","Public_toilet_in_Kameidohiraiwa-Park_KotoCity","131083","","東京都江東区亀戸6-47-12","東京都","江東区","亀戸6丁目","47-12","","亀戸平岩公園内","35.694349","139.831937","","","2","2","0","0","0","0","0","1","0","1","0","無","無","無","00:00:00","23:59:00","","","",""
"131083","131083C00118","江東区","江東区立亀戸東公園内公衆便所","コウトウクリツカメイドヒガシコウエンナイコウシュウベンジョ","Public_toilet_in_Kameidohigashi-Park_KotoCity","131083","","東京都江東区亀戸7-8-13","東京都","江東区","亀戸7丁目","8-13","","亀戸東公園内","35.696588","139.833881","","","1","1","0","0","1","1","0","0","0","0","0","有","無","無","00:00:00","23:59:00","","","",""
"131083","131083C00119","江東区","江東区立亀戸七丁目北公園内公衆便所","コウトウクリツカメイドナナチョウメキタコウエンナイコウシュウベンジョ","Public_toilet_in_Kameido7kita-Park_KotoCity","131083","","東京都江東区亀戸7-15-5","東京都","江東区","亀戸7丁目","15-5","","亀戸七丁目北公園内","35.697927","139.835447","","","1","1","0","0","0","0","0","0","0","0","1","有","無","有","00:00:00","23:59:00","","","",""
"131083","131083C00120","江東区","江東区立亀戸七丁目南公園内公衆便所","コウトウクリツカメイドナナチョウメミナミコウエンナイコウシュウベンジョ","Public_toilet_in_Kameido7minami-Park_KotoCity","131083","","東京都江東区亀戸7-40-2","東京都","江東区","亀戸7丁目","40-2","","亀戸七丁目南公園内","35.696157","139.837881","","","1","1","0","0","0","0","0","0","0","0","1","有","有","有","00:00:00","23:59:00","","","",""
"131083","131083C00121","江東区","江東区立亀戸七丁目西公園内公衆便所","コウトウクリツカメイドナナチョウメニシコウエンナイコウシュウベンジョ","Public_toilet_in_Kameido7nishi-Park_KotoCity","131083","","東京都江東区亀戸7-42-5","東京都","江東区","亀戸7丁目","42-5","","亀戸七丁目西公園内","35.696908","139.835240","","","1","1","0","0","0","0","0","1","0","1","0","無","無","無","00:00:00","23:59:00","","","",""
"131083","131083C00122","江東区","江東区立亀戸七丁目公衆便所","コウトウクリツカメイドナナチョウメコウシュウベンジョ","Public_toilet_Kameido7_KotoCity","131083","","東京都江東区亀戸7-52-17","東京都","江東区","亀戸7丁目","52-17","","昭和橋北側","35.694340","139.837132","","","2","2","0","0","0","0","0","1","1","1","0","有","無","無","00:00:00","23:59:00","","","",""
"131083","131083C00123","江東区","江東区立八千代児童遊園内公衆便所","コウトウクリツヤチヨジドウユウエンナイコウシュウベンジョ","Public_toilet_in_Yachiyo-ChildPlaySpace_KotoCity","131083","","東京都江東区亀戸8-6-6","東京都","江東区","亀戸8丁目","6-6","","八千代児童遊園内","35.699536","139.833722","","","1","1","0","0","0","0","0","0","0","0","0","有","無","有","00:00:00","23:59:00","","","",""
"131083","131083C00124","江東区","江東区立亀戸九丁目公衆便所","コウトウクリツカメイドキュウチョウメコウエンナイコウシュウベンジョ","Public_toilet_Kameido9_KotoCity","131083","","東京都江東区亀戸9-15-1","東京都","江東区","亀戸9丁目","15-1","","亀戸浅間公園内","35.695984","139.844043","","","1","1","0","0","1","1","0","0","0","0","1","有","無","無","00:00:00","23:59:00","","","",""
"131083","131083C00125","江東区","江東区立亀戸九丁目公園内公衆便所","コウトウクリツカメイドキュウチョウメコウシュウベンジョ","Public_toilet_in_Kameido9-Park_KotoCity","131083","","東京都江東区亀戸9-20-4","東京都","江東区","亀戸9丁目","20-4","","亀戸九丁目公園内","35.698294","139.842712","","","2","2","0","0","0","0","0","0","0","0","1","有","無","無","00:00:00","23:59:00","","","",""
"131083","131083C00126","江東区","江東区立亀戸九丁目緑道公園内公衆便所","コウトウクリツカメイドキュウチョウメリョクドウコウエンナイコウシュウベンジョ","Public_toilet_in_Kameid9ryokudou-Park_KotoCity","131083","","東京都江東区亀戸9-33-30","東京都","江東区","亀戸9丁目","33-30","","亀戸九丁目緑道公園内","35.700248","139.841511","","","2","2","0","0","0","0","0","1","1","1","0","無","無","無","00:00:00","23:59:00","","","",""
"131083","131083C00127","江東区","江東区立亀戸運動公園内公衆便所","コウトウクリツカメイドウンドウコウエンナイコウシュウベンジョ","Public_toilet_in_Kameidoundo-Park_KotoCity","131083","","東京都江東区亀戸9-37-23","東京都","江東区","亀戸9丁目","37-23","","亀戸運動公園内","35.699068","139.837938","","","3","3","0","0","0","0","0","1","1","1","0","無","無","無","00:00:00","23:59:00","","","",""
"131083","131083C00128","江東区","江東区立釜屋堀公衆便所","コウトウクリツカマヤボリコウシュウベンジョ","Public_toilet_Kamayabori_KotoCity","131083","","東京都江東区大島1-2-26","東京都","江東区","大島1丁目","2-26","","釜屋堀公園内","35.686540","139.820818","","","1","1","0","0","1","1","0","0","0","0","1","有","有","有","00:00:00","23:59:00","","","",""
"131083","131083C00129","江東区","江東区立大島一丁目公園内公衆便所","コウトウクリツオオジマイチチョウメコウエンナイコウシュウベンジョ","Public_toilet_in_Ojima1-Park_KotoCity","131083","","東京都江東区大島1-34-8","東京都","江東区","大島1丁目","34-8","","大島一丁目公園内","35.688177","139.825825","","","1","1","0","0","0","0","0","1","0","1","0","無","無","無","00:00:00","23:59:00","","","",""
"131083","131083C00130","江東区","江東区立大島二丁目公園内公衆便所","コウトウクリツオオジマニチョウメコウエンナイコウシュウベンジョ","Public_toilet_in_Ojima2-Park_KotoCity","131083","","東京都江東区大島2-11-7","東京都","江東区","大島2丁目","11-7","","大島二丁目公園内","35.691555","139.823239","","","1","1","0","0","0","0","0","1","0","1","0","無","無","無","00:00:00","23:59:00","","","",""
"131083","131083C00131","江東区","江東区立大島防災公園内公衆便所","コウトウクリツオオジマボウサイコウエンナイコウシュウベンジョ","Public_toilet_in_OjimaBousai-Park_KotoCity","131083","","東京都江東区大島2-27-19","東京都","江東区","大島2丁目","27-19","","大島防災公園内","35.691874","139.824114","","","1","1","0","1","1","0","1","0","0","0","1","有","無","有","00:00:00","23:59:00","","","",""
"131083","131083C00132","江東区","江東区立五の橋際公衆便所","コウトウクリツゴノハシギワコウシュウベンジョ","Public_toilet_at_Gonohashi-Bridge_KotoCity","131083","","東京都江東区大島2-31-1","東京都","江東区","大島2丁目","31-1","","五の橋南西詰め","35.693385","139.825818","","","1","1","0","0","0","0","0","0","0","0","1","有","有","有","00:00:00","23:59:00","","","",""
"131083","131083C00133","江東区","江東区立大島緑道公園内公衆便所","コウトウクリツオオジマリョクドウコウエンナイコウシュウベンジョ","Public_toilet_in_Ojimaryokudou-Park_KotoCity","131083","","東京都江東区大島3-22-1先","東京都","江東区","大島3丁目","22-1 先","","大島緑道公園内","35.692107","139.828604","","","1","1","0","0","0","0","0","1","0","1","0","無","無","無","00:00:00","23:59:00","","","",""
"131083","131083C00134","江東区","江東区立大島三丁目公衆便所","コウトウクリツオオジマサンチョウメコウシュウベンジョ","Public_toilet_Ojima3_KotoCity","131083","","東京都江東区大島3-31-15","東京都","江東区","大島3丁目","31-15","","江東区立大島三丁目公衆便所","35.689582","139.831241","","","1","1","0","1","0","0","0","1","1","0","0","有","無","無","00:00:00","23:59:00","","","",""
"131083","131083C00135","江東区","江東区立進開橋際公衆便所","コウトウクリツシンカイバシギワコウシュウベンジョ","Public_toilet_at_Shinkai-Bridge_KotoCity","131083","","東京都江東区大島4-1-25先","東京都","江東区","大島4丁目","1-25 先","","江東区立進開橋際公衆便所","35.685774","139.826810","","","1","1","0","0","0","0","0","0","0","0","1","有","無","有","00:00:00","23:59:00","","","",""
"131083","131083C00136","江東区","江東区立大島四丁目公園内公衆便所","コウトウクリツオオジマヨンチョウメダイニコウエンナイコウシュウベンジョ","Public_toilet_in_Ojima4-Park_KotoCity","131083","","東京都江東区大島4-17-9","東京都","江東区","大島4丁目","17-9","","江東区立大島四丁目公園内公衆便所","35.688024","139.831958","","","1","1","0","0","1","0","1","0","0","0","1","有","有","有","00:00:00","23:59:00","","","",""
"131083","131083C00137","江東区","江東区立大島四丁目第二公園内公衆便所","コウトウクリツオオジマヨンチョウメコウエンナイコウシュウベンジョ","Public_toilet_in_Ojima4dai2-Park_KotoCity","131083","","東京都江東区大島4-21-11","東京都","江東区","大島4丁目","21-11","","江東区立大島四丁目第二公園内公衆便所","35.686483","139.832287","","","2","2","0","0","0","0","0","1","0","1","0","無","無","無","00:00:00","23:59:00","","","",""
"131083","131083C00138","江東区","江東区立大島五丁目児童遊園内公衆便所","コウトウクリツオオジマゴチョウメジドウユウエンナイコウシュウベンジョ","Public_toilet_in_Ojima5-ChildPlaySpace_KotoCity","131083","","東京都江東区大島5-17-6","東京都","江東区","大島5丁目","17-6","","江東区立大島五丁目児童遊園内公衆便所","35.688181","139.834303","","","1","1","0","0","0","0","0","1","0","1","0","無","無","無","00:00:00","23:59:00","","","",""
"131083","131083C00139","江東区","江東区立大島五丁目公園内公衆便所","コウトウクリツオオジマゴチョウメコウエンナイコウシュウベンジョ","Public_toilet_in_Ojima5-Park_KotoCity","131083","","東京都江東区大島5-27-16","東京都","江東区","大島5丁目","27-16","","江東区立大島五丁目公園内公衆便所","35.686588","139.836098","","","2","2","0","0","1","0","1","0","0","0","1","有","有","有","00:00:00","23:59:00","","","",""
"131083","131083C00140","江東区","江東区立竪川河川敷公園内公衆便所","コウトウクリツタテカワカセンジキコウエンナイコウシュウベンジョ","Public_toilet_in_Tatekawakasenjiki-Park_KotoCity","131083","","東京都江東区大島6-2-3","東京都","江東区","大島6丁目","2-3","","江東区立竪川河川敷公園内公衆便所","35.693807","139.833616","","","1","1","0","0","0","0","0","0","0","0","1","有","有","有","00:00:00","23:59:00","","","",""
"131083","131083C00141","江東区","江東区立大島六丁目第二児童遊園内公衆便所","コウトウクリツオオジマロクチョウメダイニジドウユウエンナイコウシュウベンジョ","Public_toilet_in_Ojima6dai2-ChildPlaySpace_KotoCity","131083","","東京都江東区大島6-15-5","東京都","江東区","大島6丁目","15-5","","江東区立大島六丁目第二児童遊園内公衆便所","35.691058","139.835549","","","1","1","0","0","1","1","0","0","0","0","0","有","無","無","00:00:00","23:59:00","","","",""
"131083","131083C00142","江東区","江東区立大島七丁目公園内公衆便所","コウトウクリツオオジマナナチョウメコウエンナイコウシュウベンジョ","Public_toilet_in_Ojima7-Park_KotoCity","131083","","東京都江東区大島7-27-17","東京都","江東区","大島7丁目","27-17","","江東区立大島七丁目公園内公衆便所","35.692762","139.840567","","","2","1","0","1","1","0","1","0","0","0","1","有","有","無","00:00:00","23:59:00","","","",""
"131083","131083C00143","江東区","江東区立大島八丁目公園内公衆便所","コウトウクリツオオジマハチチョウメコウエンナイコウシュウベンジョ","Public_toilet_in_Ojima8-Park_KotoCity","131083","","東京都江東区大島8-11-7","東京都","江東区","大島8丁目","11-7","","江東区立大島八丁目公園内公衆便所","35.687694","139.839093","","","2","2","0","0","0","0","0","1","0","1","0","無","無","無","00:00:00","23:59:00","","","",""
"131083","131083C00144","江東区","江東区立大島八丁目第二公園内公衆便所","コウトウクリツオオジマハチチョウメダイニコウエンナイコウシュウベンジョ","Public_toilet_in_Ojima8dai2-Park_KotoCity","131083","","東京都江東区大島8-21-25","東京都","江東区","大島8丁目","21-25","","江東区立大島八丁目第二公園内公衆便所","35.688823","139.840298","","","1","1","0","0","1","1","0","0","0","0","0","有","無","無","00:00:00","23:59:00","","","",""
"131083","131083C00145","江東区","江東区立東大島駅前公衆便所","コウトウクリツヒガシオオジマエキマエコウシュウベンジョ","Public_toilet_in_front_of_Higashi-Ojima.Sta._KotoCity","131083","","東京都江東区大島9-3-13","東京都","江東区","大島9丁目","3-13","","江東区立東大島駅前公衆便所","35.690278","139.845487","","","3","2","1","0","1","1","0","0","0","0","1","無","有","無","00:00:00","23:59:00","","","",""
"131083","131083C00146","江東区","江東区立旧中川・川の駅公衆便所","コウトウクリツキュウナカガワ・カワノエキコウシュウベンジョ","Public_toilet_Kyu-nakagawa-river-station_KotoCity","131083","","東京都江東区大島9-10ー","東京都","江東区","大島9丁目","10 ー","","江東区立旧中川・川の駅公衆便所","35.687541","139.846619","","","3","2","0","1","2","0","1","0","0","0","1","有","有","有","00:00:00","23:59:00","","","",""
"131083","131083C00147","江東区","江東区立北砂水上公園横公衆便所","コウトウクリツキタスナスイジョウコウエンヨココウシュウベンジョ","Public_toilet_in_Kitasunasuijyo-Park_KotoCity","131083","","東京都江東区北砂1-2ー先","東京都","江東区","北砂1丁目","2 ー先","","江東区立北砂水上公園横公衆便所","35.684938","139.821485","","","2","2","0","0","0","0","0","0","0","0","1","有","有","有","00:00:00","23:59:00","","","",""
"131083","131083C00148","江東区","江東区立北砂第二公園内公衆便所","コウトウクリツキタスナダイニコウエンナイコウシュウベンジョ","Public_toilet_in_Kitasunadai2-Park_KotoCity","131083","","東京都江東区北砂1-3-25","東京都","江東区","北砂1丁目","3-25","","江東区立北砂第二公園内公衆便所","35.684479","139.823720","","","1","1","0","0","1","1","0","0","0","0","1","有","無","有","00:00:00","23:59:00","","","",""
"131083","131083C00149","江東区","江東区立北砂一丁目南公園内公衆便所","コウトウクリツキタスナイッチョウメミナミコウエンナイコウシュウベンジョ","Public_toilet_in_Kitasuna1minami-Park_KotoCity","131083","","東京都江東区北砂1-15-1","東京都","江東区","北砂1丁目","15-1","","江東区立北砂一丁目南公園内公衆便所","35.677818","139.825498","","","1","1","0","0","0","0","0","1","0","1","0","無","無","無","00:00:00","23:59:00","","","",""
"131083","131083C00150","江東区","江東区立北砂二丁目公園内公衆便所","コウトウクリツキタスナニチョウメコウエンナイコウシュウベンジョ","Public_toilet_in_Kitasuna2-Park_KotoCity","131083","","東京都江東区北砂2-9-14","東京都","江東区","北砂2丁目","9-14","","江東区立北砂二丁目公園内公衆便所","35.679141","139.826251","","","1","1","0","0","1","1","1","0","0","0","1","有","無","有","00:00:00","23:59:00","","","",""
"131083","131083C00151","江東区","江東区立砂町中央公園内公衆便所","コウトウクリツスナマチチュウオウコウエンナイコウシュウベンジョ","Public_toilet_in_Sunamachichuo-Park_KotoCity","131083","","東京都江東区北砂4-20-24","東京都","江東区","北砂4丁目","20-24","","江東区立砂町中央公園内公衆便所","35.676681","139.831798","","","2","2","0","0","0","0","0","1","0","1","0","無","無","無","00:00:00","23:59:00","","","",""
"131083","131083C00152","江東区","江東区立亀高児童遊園内公衆便所","コウトウクリツカメタカジドウユウエンナイコウシュウベンジョ","Public_toilet_in_Kametka-ChildPlaySpace_KotoCity","131083","","東京都江東区北砂4-22-30","東京都","江東区","北砂4丁目","22-30","","江東区立亀高児童遊園内公衆便所","35.678225","139.831787","","","1","1","0","0","0","0","0","0","0","0","1","有","有","有","00:00:00","23:59:00","","","",""
"131083","131083C00153","江東区","江東区立北砂公園内公衆便所","コウトウクリツキタスナコウエンナイコウシュウベンジョ","Public_toilet_in_Kitasuna-Park_KotoCity","131083","","東京都江東区北砂5-1-2","東京都","江東区","北砂5丁目","1-2","","江東区立北砂公園内公衆便所","35.679901","139.831390","","","2","2","0","0","0","0","0","1","0","1","0","無","無","無","00:00:00","23:59:00","","","",""
"131083","131083C00154","江東区","江東区立北砂五丁目公衆便所","コウトウクリツキタスナゴチョウメコウシュウベンジョ","Public_toilet_Kitasuna5_KotoCity","131083","","東京都江東区北砂5-20-13","東京都","江東区","北砂5丁目","20-13","","江東区立北砂五丁目公衆便所","35.683989","139.832205","","","1","1","0","0","0","0","0","1","0","1","0","無","無","無","00:00:00","23:59:00","","","",""
"131083","131083C00155","江東区","江東区立小名木川防災公園内公衆便所","コウトウクリツオナギカワボウサイコウエンナイコウシュウベンジョ","Public_toilet_in_Onagigawabousai-Park_KotoCity","131083","","東京都江東区北砂5-21-5","東京都","江東区","北砂5丁目","21-5","","江東区立小名木川防災公園内公衆便所","35.682931","139.830850","","","1","1","0","0","0","0","0","0","0","0","1","有","有","有","00:00:00","23:59:00","","","",""
"131083","131083C00156","江東区","江東区立丸八児童遊園内公衆便所","コウトウクリツマルハチジドウユウエンナイコウシュウベンジョ","Public_toilet_in_Maruhachi-ChildPlaySpace_KotoCity","131083","","東京都江東区北砂6-16-12","東京都","江東区","北砂6丁目","16-12","","江東区立丸八児童遊園内公衆便所","35.685356","139.837616","","","2","2","0","0","0","0","0","1","0","1","0","無","無","無","00:00:00","23:59:00","","","",""
"131083","131083C00157","江東区","江東区立北砂六丁目公衆便所","コウトウクリツキタスナロクチョウメコウシュウベンジョ","Public_toilet_Kitasuna6_KotoCity","131083","","東京都江東区北砂6-20-19","東京都","江東区","北砂6丁目","20-19","","江東区立北砂六丁目公衆便所","35.684453","139.838939","","","2","2","0","0","0","0","0","1","1","1","0","無","無","無","00:00:00","23:59:00","","","",""
"131083","131083C00158","江東区","江東区立亀高公園内公衆便所","コウトウクリツカメタカコウエンナイコウシュウベンジョ","Public_toilet_in_Kametaka-Park_KotoCity","131083","","東京都江東区北砂6-26-8","東京都","江東区","北砂6丁目","26-8","","江東区立亀高公園内公衆便所","35.681439","139.838582","","","1","1","0","0","0","0","0","0","0","0","1","有","有","有","00:00:00","23:59:00","","","",""
"131083","131083C00159","江東区","江東区立仙台堀川親水公園内公衆便所","コウトウクリツセンダイホリカワシンスイコウエンナイコウシュウベンジョ","Public_toilet_in_Sendaiborigawa-Park_KotoCity","131083","","東京都江東区北砂7-6ー先","東京都","江東区","北砂7丁目","6 ー先","","江東区立仙台堀川親水公園内公衆便所","35.680177","139.838710","","","3","2","0","1","2","0","2","0","0","0","1","有","有","有","00:00:00","23:59:00","","","",""
"131083","131083C00160","江東区","江東区立東砂一丁目公園内公衆便所","コウトウクリツヒガシスナイッチョウメコウエンナイコウシュウベンジョ","Public_toilet_in_Higashisuna1-Park_KotoCity","131083","","東京都江東区東砂1-2-13","東京都","江東区","東砂1丁目","2-13","","江東区立東砂一丁目公園内公衆便所","35.683747","139.839701","","","2","2","0","1","1","0","1","0","0","0","1","有","有","有","00:00:00","23:59:00","","","",""
"131083","131083C00161","江東区","江東区立東砂二丁目公衆便所","コウトウクリツヒガシスナニチョウメコウシュウベンジョ","Public_toilet_Higashisuna2_KotoCity","131083","","東京都江東区東砂2-13-50","東京都","江東区","東砂2丁目","13-50","","江東区立東砂二丁目公衆便所","35.684798","139.843850","","","1","1","0","0","1","1","0","1","0","1","1","有","無","無","00:00:00","23:59:00","","","",""
"131083","131083C00162","江東区","江東区立東砂三丁目公園内公衆便所","コウトウクリツヒガシスナサンチョウメコウエンナイコウシュウベンジョ","Public_toilet_in_Higashisuna3-Park_KotoCity","131083","","東京都江東区東砂3-16-8","東京都","江東区","東砂3丁目","16-8","","江東区立東砂三丁目公園内公衆便所","35.682255","139.841234","","","1","1","0","0","0","0","0","0","0","0","1","有","有","有","00:00:00","23:59:00","","","",""
"131083","131083C00163","江東区","江東区立東砂三丁目第二公園内公衆便所","コウトウクリツヒガシスナサンチョウメダイニコウエンナイコウシュウベンジョ","Public_toilet_in_Higashisuna3dai2-Park_KotoCity","131083","","東京都江東区東砂3-17-17","東京都","江東区","東砂3丁目","17-17","","江東区立東砂三丁目第二公園内公衆便所","35.681432","139.842340","","","2","2","0","0","0","0","0","1","0","1","0","無","無","無","00:00:00","23:59:00","","","",""
"131083","131083C00164","江東区","江東区立城東公園内公衆便所","コウトウクリツジョウトウコウエンナイコウシュウベンジョ","Public_toilet_in_Jyoto-Park_KotoCity","131083","","東京都江東区東砂4-20-20","東京都","江東区","東砂4丁目","20-20","","江東区立城東公園内公衆便所","35.678888","139.839406","","","3","2","0","1","2","1","1","0","0","0","0","無","無","無","00:00:00","23:59:00","","","",""
"131083","131083C00165","江東区","江東区立東砂六丁目公園内公衆便所","コウトウクリツヒガシスナロクチョウメコウエンナイコウシュウベンジョ","Public_toilet_in_Higashisuna6-Park_KotoCity","131083","","東京都江東区東砂6-19-8","東京都","江東区","東砂6丁目","19-8","","江東区立東砂六丁目公園内公衆便所","35.674454","139.841228","","","1","1","0","0","0","0","0","1","0","1","0","無","無","無","00:00:00","23:59:00","","","",""
"131083","131083C00166","江東区","江東区立舟入川公衆便所","コウトウクリツフナイリガワコウエンナイコウシュウベンジョ","Public_toilet_Funairigawa_KotoCity","131083","","東京都江東区東砂7-12-4","東京都","江東区","東砂7丁目","12-4","","江東区立舟入川公衆便所","35.672738","139.840693","","","1","1","0","0","1","0","1","0","0","0","0","有","無","無","00:00:00","23:59:00","","","",""
"131083","131083C00167","江東区","江東区立砂町公園内公衆便所","コウトウクリツスナマチコウエンナイコウシュウベンジョ","Public_toilet_in_Sunamachi-Park_KotoCity","131083","","東京都江東区東砂7-15-3","東京都","江東区","東砂7丁目","15-3","","江東区立砂町公園内公衆便所","35.674175","139.839864","","","1","1","0","0","0","0","0","0","0","0","1","有","有","有","00:00:00","23:59:00","","","",""
"131083","131083C00168","江東区","江東区立境川橋際公衆便所","コウトウクリツサカイガワバシギワコウシュウベンジョ","Public_toilet_at_Sakaigawa-Bridge_KotoCity","131083","","東京都江東区東砂7-18-10","東京都","江東区","東砂7丁目","18-10","","江東区立境川橋際公衆便所","35.675472","139.836590","","","4","2","1","1","2","1","1","0","0","0","0","有","無","無","00:00:00","23:59:00","","","",""
"131083","131083C00169","江東区","江東区立ボート場内公衆便所","コウトウクリツボートジョウナイコウシュウベンジョ","Public_toilet_in_BoatYard_KotoCity","131083","","東京都江東区南砂1-1ー先","東京都","江東区","南砂1丁目","1 ー先","","江東区立ボート場内公衆便所","35.676897","139.820207","","","2","2","0","0","0","0","0","1","0","1","0","無","無","無","00:00:00","23:59:00","","","",""
"131083","131083C00170","江東区","江東区立南砂一丁目公園内公衆便所","コウトウクリツミナミスナイッチョウメコウエンナイコウシュウベンジョ","Public_toilet_in_Minamisuna1-Park_KotoCity","131083","","東京都江東区南砂1-1-5","東京都","江東区","南砂1丁目","1-5","","江東区立南砂一丁目公園内公衆便所","35.676760","139.821079","","","1","1","0","0","0","0","0","0","0","0","1","有","有","有","00:00:00","23:59:00","","","",""
"131083","131083C00171","江東区","江東区立南砂一丁目第二公園内公衆便所","コウトウクリツミナミスナイッチョウメダイニコウエンナイコウシュウベンジョ","Public_toilet_in_Minamisuna1dai2-Park_KotoCity","131083","","東京都江東区南砂1-3-18","東京都","江東区","南砂1丁目","3-18","","江東区立南砂一丁目第二公園内公衆便所","35.678795","139.821827","","","1","1","0","0","0","0","0","0","0","0","1","有","無","有","00:00:00","23:59:00","","","",""
"131083","131083C00172","江東区","江東区立松島橋際公衆便所","コウトウクリツマツシマバシギワコウシュウベンジョ","Public_toilet_at_Matsushima-Bridge_KotoCity","131083","","東京都江東区南砂1-21-12","東京都","江東区","南砂1丁目","21-12","","江東区立松島橋際公衆便所","35.676197","139.824398","","","1","2","0","0","0","0","0","1","1","0","0","有","無","無","00:00:00","23:59:00","","","",""
"131083","131083C00173","江東区","江東区立南砂緑道公園内公衆便所","コウトウクリツミナミスナリョクドウコウエンナイコウシュウベンジョ","Public_toilet_in_Minamisunaryokudou-Park_KotoCity","131083","","東京都江東区南砂2-13-5先","東京都","江東区","南砂2丁目","13-5 先","","江東区立南砂緑道公園内公衆便所","35.674134","139.820990","","","1","1","0","0","1","1","0","0","0","0","1","有","無","有","00:00:00","23:59:00","","","",""
"131083","131083C00174","江東区","江東区立南砂緑道公園第二公衆便所","コウトウクリツミナミスナリョクドウコウエンダイニコウシュウベンジョ","Public_toilet_in_Minamisunaryokudou-Park_KotoCity","131083","","東京都江東区南砂2-23-9","東京都","江東区","南砂2丁目","23-9","","江東区立南砂緑道公園第二公衆便所","35.673476","139.825008","","","2","2","0","0","0","1","0","0","0","0","1","有","無","有","00:00:00","23:59:00","","","",""
"131083","131083C00175","江東区","江東区立南砂二丁目公園内公衆便所","コウトウクリツミナミスナニチョウメコウエンナイコウシュウベンジョ","Public_toilet_in_Minamisuna2-Park_KotoCity","131083","","東京都江東区南砂2-24-4","東京都","江東区","南砂2丁目","24-4","","江東区立南砂二丁目公園内公衆便所","35.674727","139.824944","","","1","1","0","0","0","0","0","0","0","0","1","有","有","有","00:00:00","23:59:00","","","",""
"131083","131083C00176","江東区","江東区立弾正橋際公衆便所","コウトウクリツダンジョウバシギワコウシュウベンジョ","Public_toilet_at_Danjo-Bridge_KotoCity","131083","","東京都江東区南砂2-33-1","東京都","江東区","南砂2丁目","33-1","","江東区立弾正橋際公衆便所","35.675314","139.826701","","","2","2","0","0","1","1","0","0","0","0","1","有","無","無","00:00:00","23:59:00","","","",""
"131083","131083C00177","江東区","江東区立日曹橋公園内公衆便所","コウトウクリツニッソウバシコウエンナイコウシュウベンジョ","Public_toilet_in_Nissobashi-Park_KotoCity","131083","","東京都江東区南砂3-1-1","東京都","江東区","南砂3丁目","1-1","","江東区立日曹橋公園内公衆便所","35.669872","139.827948","","","1","1","0","0","0","0","0","1","1","0","0","有","無","無","00:00:00","23:59:00","","","",""
"131083","131083C00178","江東区","江東区立南砂三丁目公園内公衆便所","コウトウクリツミナミスナサンチョウエコウエンナイコウシュウベンジョ","Public_toilet_in_Minamisuna3-Park_KotoCity","131083","","東京都江東区南砂3-14-21","東京都","江東区","南砂3丁目","14-21","","江東区立南砂三丁目公園内公衆便所","35.669695","139.833396","","","3","2","1","0","2","1","1","0","0","0","1","有","有","有","00:00:00","23:59:00","","","",""
"131083","131083C00179","江東区","江東区立南砂三丁目公園内第二公衆便所","コウトウクリツミナミスナサンチョウメナイダイニコウシュウベンジョ","Public_toilet_in_Minamisuna3-Park_KotoCity","131083","","東京都江東区南砂3-14-21","東京都","江東区","南砂3丁目","14-21","","江東区立南砂三丁目公園内第二公衆便所","35.670968","139.833031","","","2","2","0","0","0","0","0","0","0","0","1","有","有","有","00:00:00","23:59:00","","","",""
"131083","131083C00180","江東区","江東区立南砂四丁目西公園内公衆便所","コウトウクリツミナミスナヨンチョウメニシコウエンナイコウシュウベンジョ","Public_toilet_in_Minamisuna4nishi-Park_KotoCity","131083","","東京都江東区南砂4-3-21","東京都","江東区","南砂4丁目","3-21","","江東区立南砂四丁目西公園内公衆便所","35.673945","139.827527","","","1","1","0","0","0","0","0","1","0","1","0","無","無","無","00:00:00","23:59:00","","","",""
"131083","131083C00181","江東区","江東区立南砂四丁目公園内公衆便所","コウトウクリツミナミスナヨンチョウメコウエンナイコウシュウベンジョ","Public_toilet_in_Minamisuna4-Park_KotoCity","131083","","東京都江東区南砂4-4-5","東京都","江東区","南砂4丁目","4-5","","江東区立南砂四丁目公園内公衆便所","35.674232","139.829909","","","1","1","0","0","0","0","0","0","0","0","1","有","有","有","00:00:00","23:59:00","","","",""
"131083","131083C00182","江東区","江東区立砂町橋公園内公衆便所","コウトウクリツスナマチバシコウエンナイコウシュウベンジョ","Public_toilet_in_Sunamachi-Bridge-Park_KotoCity","131083","","東京都江東区南砂4-12-1","東京都","江東区","南砂4丁目","12-1","","江東区立砂町橋公園内公衆便所","35.673601","139.832677","","","1","1","0","0","0","0","0","0","0","0","1","有","有","有","00:00:00","23:59:00","","","",""
"131083","131083C00183","江東区","江東区立境川公園内公衆便所","コウトウクリツサカイガワコウエンナイコウシュウベンジョ","Public_toilet_in_Sakaigawa-Park_KotoCity","131083","","東京都江東区南砂5-6-1","東京都","江東区","南砂5丁目","6-1","","江東区立境川公園内公衆便所","35.676296","139.828364","","","1","1","0","0","0","0","0","0","0","0","1","有","有","有","00:00:00","23:59:00","","","",""
"131083","131083C00184","江東区","江東区立金森公園内公衆便所","コウトウクリツカナモリコウエンナイコウシュウベンジョ","Public_toilet_in_Kanamori-Park_KotoCity","131083","","東京都江東区南砂5-19-13","東京都","江東区","南砂5丁目","19-13","","江東区立金森公園内公衆便所","35.674811","139.832402","","","1","1","0","0","0","0","0","0","0","0","1","有","無","有","00:00:00","23:59:00","","","",""
"131083","131083C00185","江東区","江東区立南砂六丁目公園内公衆便所","コウトウクリツミナミスナロクチョウメコウエンナイコウシュウベンジョ","Public_toilet_in_Minamisuna6-Park_KotoCity","131083","","東京都江東区南砂6-5-7","東京都","江東区","南砂6丁目","5-7","","江東区立南砂六丁目公園内公衆便所","35.673277","139.834263","","","2","2","0","0","0","0","0","1","0","1","0","無","無","無","00:00:00","23:59:00","","","",""
"131083","131083C00186","江東区","江東区立八幡公衆便所","コウトウクリツハチマンコウシュウベンジョ","Public_toilet_Hachiman_KotoCity","131083","","東京都江東区南砂7-14-16","東京都","江東区","南砂7丁目","14-16","","江東区立八幡公衆便所","35.668774","139.837856","","","2","2","0","0","0","0","0","1","0","1","0","無","無","無","00:00:00","23:59:00","","","",""
"131083","131083C00187","江東区","江東区立新砂あゆみ公園内公衆便所","コウトウクリツシンスナアユミコウエンナイコウシュウベンジョ","Public_toilet_in_Shinsunaayumi-Park_KotoCity","131083","","東京都江東区新砂3-3-6","東京都","江東区","新砂3丁目","3-6","","江東区立新砂あゆみ公園内公衆便所","35.668139","139.832039","","","3","2","0","1","2","0","2","0","0","0","1","有","有","有","00:00:00","23:59:00","","","",""
"131083","131083C00188","江東区","江東区立新砂のぞみ公園内公衆便所","コウトウクリツシンスナノゾミコウエンナイコウシュウベンジョ","Public_toilet_in_Shinsunanozomi-Park_KotoCity","131083","","東京都江東区新砂3-3-47","東京都","江東区","新砂3丁目","3-47","","江東区立新砂のぞみ公園内公衆便所","35.666717","139.830660","","","2","1","1","0","1","1","0","0","0","0","0","有","無","無","00:00:00","23:59:00","","","",""
"131083","131083C00189","江東区","江東区立新砂めぐみ公園内公衆便所","コウトウクリツシンスナメグミコウエンナイコウシュウベンジョ","Public_toilet_in_Shinsunamegumi-Park_KotoCity","131083","","東京都江東区新砂3-4-1","東京都","江東区","新砂3丁目","4-1","","江東区立新砂めぐみ公園内公衆便所","35.666333","139.837874","","","1","1","0","0","1","1","0","0","0","0","0","有","無","無","00:00:00","23:59:00","","","",""
"131083","131083C00190","江東区","江東区立新木場駅前公衆便所","コウトウクリツシンキバエキマエコウシュウベンジョ","Public_toilet_in_front_of_Shinkiba.Sta._KotoCity","131083","","東京都江東区新木場1-5-10","東京都","江東区","新木場1丁目","5-10","","江東区立新木場駅前公衆便所","35.645304","139.825938","","","5","3","0","2","4","0","4","0","0","0","1","有","有","有","00:00:00","23:59:00","","","",""
"131083","131083C00191","江東区","江東区立若洲公園内風車際公衆便所","コウトウクリツワカスコウエンナイフウシャギワコウシュウベンジョ","Public_toilet_in_Wakasu-Park_KotoCity","131083","","東京都江東区若洲3-2-1","東京都","江東区","若洲3丁目","2-1","","江東区立若洲公園内風車際公衆便所","35.622505","139.834635","","","7","4","2","1","4","2","2","0","0","0","0","無","無","無","00:00:00","23:59:00","","","",""
